经度_84,纬度_84,名称
110.32443417735662,20.058821144941852,海南大学
110.32776313632063,20.031859488781784,海口技师学院
110.48479657282435,19.96587127771506,海口经济学院
110.32937293598366,20.062800015330993,海南大学法学院
110.32989177857249,20.062827053644693,海南大学理学院
109.48997637455862,19.51019925579931,海南大学林学院
110.32989177857249,20.062827053644693,海南大学管理学院
110.31895136423283,20.059608252748976,海南大学海洋学院
110.32989177857249,20.062827053644693,海南大学经济学院
110.32194951090713,20.063027358715836,海南大学园艺学院
110.3656435458607,20.01304910032316,海南工商职业学院
109.53491755518031,18.23229228958776,海南广播电视大学
110.32937193836345,20.06279701475113,海南大学外国语学院
110.32194951090713,20.063027358715836,海南大学动物科技学院
110.33034992752845,20.059582510666633,海南大学机电工程学院
110.32364476157072,19.985177603805898,海南大学热带作物学院
110.33028889593912,20.062799278513594,海南大学人文传播学院
110.32872450618846,20.060413279020832,海南大学应用科技学院
110.31873978481934,20.06055343444303,海南大学植物保护学院
110.4078873922991,20.017602308332812,海南海洋与渔业科学院
110.33010732220187,20.062374272059873,海南大学马克思主义学院
110.32111458716456,20.058909556451425,海南大学美术与设计学院
110.31873978481934,20.06055343444303,海南大学生态与环境学院
110.3211056287937,20.058492229219134,海南大学音乐与舞蹈学院
110.31928954709346,20.060881659873363,海南大学生命科学与药学院
110.32281295336549,20.055889822344515,海南大学土木建筑工程学院
110.32030222533734,20.062218834258935,海南大学材料科学与工程学院
110.40404866900451,20.044773418043558,海南大学化学工程与技术学院
110.32030222533734,20.062218834258935,海南大学食品科学与工程学院
110.32030222533734,20.062218834258935,海南大学信息与通信工程学院
110.32977006995122,20.062436962828922,海南大学政治与公共管理学院
110.32626699354795,20.060460998590777,海南大学计算机与网络空间安全学院
109.48861146761237,19.509656941166767,儋州市农林科学院
110.00507337437865,19.7247774602417,澄迈中学
110.32982043269563,20.053308334374435,海口华兴学校
110.36242836434184,20.020483396387938,海口实验中学
109.55645970014874,19.517205599222876,海南东坡学校
110.31913895394266,20.020898848195383,海南华侨中学
109.45382756690614,19.22669076503682,白沙县白沙中学
110.00647203328947,19.743574208794243,澄迈县第二中学
109.92763160456319,19.836537101798974,澄迈县福山中学
109.30413995190357,19.449453064371248,儋州市八一中学
109.57812857431097,19.514084878682162,儋州市第二中学
109.60565496862885,19.523931624926593,儋州市第十小学
109.44919309673972,19.710969716368968,儋州市东成中学
110.3178832511341,19.69999445090142,定安县定安中学
108.64604818659684,19.10006080311815,东方市第一小学
110.33406365100241,20.041346451036688,海口市第九小学
110.34779076543629,20.035782311997252,海口市第十中学
110.35557559265763,20.03686074072972,海口市第四中学
110.33136066327724,20.040702994536048,海口市第一中学
110.34437785298624,20.072508481397527,海口市海景学校
110.32660779749592,20.03032041406464,海口市龙华小学
110.36242836434184,20.020483396387938,海口市实验中学
109.57211353913725,19.552668159113637,儋州黄冈实验学校
109.21590383909147,19.702643854729406,儋州市白马井中学
110.27909451990149,19.981294314969087,海口旅游职业学校
110.46212371089734,19.983623638841056,海口市桂林洋中学
110.17866435044547,20.051615145602746,海口市五源河学校
109.56609074624724,19.509886401100992,儋州市那大第五小学
109.61109034281968,19.52947074445321,儋州市思源高级中学
110.29231689525723,20.025244710215837,海口市滨海第九小学
110.31488738277919,20.020034172567108,海口市第二十六小学
110.27097589861955,20.01992996501194,海口市第二十七小学
110.35646829408473,20.049348736201623,海口市美兰实验小学
110.29677649638239,20.008155457108977,海口市秀峰实验学校
110.30918246960154,20.024895789836766,海口市玉沙实验学校
110.00287486780056,19.75335188546855,澄迈中等职业技术学校
109.4444185549419,19.218181873319004,海南白沙思源实验学校
109.44337191609723,19.214041566399576,白沙黎族自治县民族中学
109.05347051182522,19.257184697511473,昌江黎族自治县矿区中学
109.57692420395948,19.507157097504038,儋州市中等职业技术学校
110.34350706968344,19.620852389442305,定安县平和思源实验学校
110.40500666744177,20.006941330571205,北京师范大学海口附属学校
110.4222682276468,18.815899805773526,北京师范大学万宁附属中学
110.3437357825112,19.965318836775584,海南(海口)特殊教育学校
109.44106001545111,19.213788118899743,白沙县牙叉镇
109.62492891885566,18.54354968230475,保亭县新政镇
108.81454286920523,19.423837577377387,昌江县海尾镇
110.29748212994005,20.00843753520427,海口市秀峰幼儿园
110.33284873280887,20.033653352621265,海口市中心幼儿园
108.86142821584703,19.424915039185056,昌江县海尾镇五大村
110.00064346785426,19.722981609117564,澄迈县金江镇金诚幼儿园
110.37573784990109,19.81317617588406,海口市龙华区龙泉镇美仁坡村
108.70870234520899,19.145505967312914,东方市八所镇斯文村大章嘉兴养猪场
109.443663846545,19.185098951289724,白沙黎族自治县牙叉镇白沙村委会和容村
110.24882155657906,19.998877269283536,海南海灵化学制药有限公司
110.34209633348907,20.020946866083985,海航集团有限公司
110.19976778806154,19.993657951228762,海口富顺科技公司
110.30469433824767,19.996677438038454,海南宝通实业公司
110.32245504519899,19.992387857676672,海南地质有限公司
109.05138851805799,19.260822845294186,海南核电有限公司
110.34011358751164,20.020321897474325,海航进出口有限公司
110.27861118697312,20.020614520759576,海口港信通有限公司
110.35141705869812,20.02626044772843,海口市演艺有限公司
110.74030031378028,19.57425726135066,白沙富涵实业有限公司
109.99072829935945,19.81634396636682,澄迈福羊牧业有限公司
0.0,0.0,澄迈远丰实业有限公司
110.32120073709314,20.013742980585583,广东海垦商贸有限公司
110.26679470125163,19.992660897514742,海口市制药厂有限公司
0.0,0.0,海口一纬科技有限公司
110.25642663924204,19.994445572848086,海南倍特药业有限公司
109.56279551041489,18.260570975437915,海南晨海水产有限公司
0.0,0.0,海南晨辉置业有限公司
110.32022271200907,20.036967111366142,海南诚建科技有限公司
0.0,0.0,海南创述装饰有限公司
110.35356131420282,19.67226311364336,海南达川食品有限公司
0.0,0.0,海南大伟雕艺有限公司
0.0,0.0,海南大显科技有限公司
110.2708044454827,19.954270701916336,海南电网有限责任公司
0.0,0.0,海南东华软件有限公司
108.65786447542939,19.09295677889432,海南方农实业有限公司
109.6094003250188,18.30864637679825,海南富春医药有限公司
110.28068421292558,20.02070310608691,海南港航控股有限公司
110.31978156212077,20.000890013678475,海南公路工程有限公司
110.21338900121424,20.009157954478923,海南海力制药有限公司
110.26324187307652,19.993727341612296,海南海药股份有限公司
109.51303995888684,18.26369266901266,海南航众科技有限公司
109.92707863432122,19.688275224845437,海南洪安农业有限公司
110.31463199298322,20.01905183686832,海南华悦科技有限公司
109.21560047507097,19.66501457844315,儋州鑫海混凝土有限公司
110.20340666157185,20.02224501263587,海口市城建集团有限公司
110.85411025258328,19.576500790112288,海口鑫大川门业有限公司
0.0,0.0,海南迪奥普科技有限公司
110.33760700289609,20.02014731272547,海南飞行者科技有限公司
109.58671757310229,18.669370538079654,保亭雨林幽兰茶叶有限公司
109.92707863432122,19.688275224845437,澄迈洪安农业开发有限公司
0.0,0.0,澄迈华维网络科技有限公司
110.34799318468976,20.01992181690633,大唐海南能源开发有限公司
109.57828219974192,19.502823304437165,东方黎尚文化服饰有限公司
108.6282312861273,19.09073028788479,东方祥麟菜果基地有限公司
110.3039982241399,20.02666656103068,海保人寿保险股份有限公司
110.47345371738533,19.9415573973172,海航航空控股股份有限公司
110.33992601785589,20.019777784443647,海航航空旅游集团有限公司
110.15320196618353,20.057609477787505,海口联投新海置业有限公司
110.25478380153122,19.988885578318307,海口奇力制药股份有限公司
110.34649307002624,19.96550222056965,海口师霖农业开发有限公司
0.0,0.0,海口唐艺文化传播有限公司
110.14405295969968,19.98823993371928,海口天虹生物科技有限公司
0.0,0.0,海口微讯网络科技有限公司
110.3173324616633,20.030449200116397,海口宜坤环境技术有限公司
0.0,0.0,海口亿游网络科技有限公司
110.32350508075866,20.042906766503584,海南北斗天绘科技有限公司
0.0,0.0,海南柴艺坊艺术品有限公司
110.28102872083163,20.020412439006137,海南诚港人力资源有限公司
110.30515145480959,19.99549264455509,海南村里吧吧实业有限公司
110.31689352036574,20.028725601447476,海南岛购电子商务有限公司
110.30008232720745,20.022593945013018,海南第三建设工程有限公司
110.29488866440883,20.015809855940425,海南第四建设工程有限公司
110.31905240864128,20.015828804273756,海南第一建设工程有限公司
110.32471399838528,19.701325299836363,海南电网设计有限责任公司
110.11522226534622,19.386703150708588,海南电网输变电检修分公司
108.72861268354238,19.104152904771,海南顶香生态农业有限公司
110.47345371733346,19.94155839813946,海南东进航空科技有限公司
0.0,0.0,海南飞思网络科技有限公司
110.34404511322323,20.023347424440004,海南高速公路股份有限公司
110.03757245665794,18.496125881206037,海南广陵高科实业有限公司
110.35955876554308,20.030114321111878,海南国为亿科环境有限公司
110.31122576595655,20.03120226545375,海南海航健康管理有限公司
110.30320945045086,20.014759060576818,海南海垦物业服务有限公司
110.11576895527931,19.949340155849516,海南海控特玻科技有限公司
0.0,0.0,海南海平面旅行社有限公司
0.0,0.0,海南海泉家园生态有限公司
0.0,0.0,海南海锐众创科技有限公司
110.63049645433274,20.101198260767188,海南海壹水产种苗有限公司
109.19007065860593,19.767133700383145,海南汉地流体材料有限公司
110.32441612982768,20.02198568305704,海南航冠电子科技有限公司
110.47317990212214,19.94371640332713,海南航空控股股份有限公司
110.79550921574793,19.545366169501538,海南航天投资管理有限公司
109.20773010293141,19.73819612736451,海南合丰运维科技有限公司
110.24872188063644,19.99301341313457,海南合瑞制药股份有限公司
0.0,0.0,海南恒鹏建设工程有限公司
110.45763542145623,19.88996471258439,海南红塔卷烟有限责任公司
110.35662892986451,20.031589791449967,海南宏生勘测设计有限公司
110.30051536443858,20.024616888454336,海南泓景建筑设计有限公司
110.0055584676094,19.732339168510357,海南洪都商业管理有限公司
0.0,0.0,海南华昌矿业开发有限公司
109.52421537643191,18.29818941573396,海南华诚测绘科技有限公司
110.30028681436107,20.024688336192394,海南华鹏工程咨询有限公司
110.25277711586831,20.000864141735367,海南华益泰康药业有限公司
110.45465513529078,19.98368133666296,海南皇隆制药股份有限公司
0.0,0.0,海南火吧时代科技有限公司
110.25897590670057,19.99744089898085,海南佳风工程设计有限公司
110.3337064042678,20.00355076306914,海南佳磊工程监理有限公司
0.0,0.0,保亭正生堂生物工程有限公司
0.0,0.0,澄迈天宇房地产开发有限公司
109.5877224685562,19.541010442705872,儋州市城市建设投资有限公司
0.0,0.0,儋州市鑫腾生态养殖有限公司
108.98597155107313,19.026068754676356,国电海南大广坝发电有限公司
110.2684667766187,19.958162971166875,海口诚佳美塑料包装有限公司
0.0,0.0,海口科博瑞信息科技有限公司
110.2512581306836,20.012159890560465,海口市城市建设投资有限公司
110.31751922102542,20.046429083262804,海口市路桥建设投资有限公司
0.0,0.0,海口万维达餐饮管理有限公司
0.0,0.0,海口威旭隆装饰工程有限公司
110.32686369829449,20.02121537243117,海口喜盈门经营管理有限公司
110.44094414954382,19.7777161681709,海口鑫凤銮农业开发有限公司
110.31573746228095,20.04040946814195,海南爱哪哪网络科技有限公司
110.26868230967769,19.962911711592074,海南八百里物流股份有限公司
0.0,0.0,海南保亭椰泽坊食品有限公司
110.31499556541952,20.03124927366304,海南比特计算机网络有限公司
110.27082332175898,19.936669204776056,海南必凯水性新材料有限公司
110.30975280955957,19.994742714201426,海南碧凯药物研究所有限公司
0.0,0.0,海南达斯琪数字科技有限公司
110.3508998161755,20.031114308435708,海南电信规划设计院有限公司
0.0,0.0,海南海茶协文化传播有限公司
109.56713107985912,19.526410751558775,海南恒久钢结构工程有限公司
110.30360501077769,20.02702654994012,保利(海南)旅游发展有限公司
110.35853327410997,19.631692343255967,保亭港海高新农业开发有限公司
0.0,0.0,保亭海农同创农业投资有限公司
108.68106416123516,18.540060036334683,国家能源集团乐东发电有限公司
110.37212573695241,20.019144836052075,国兴(海南)信息科技有限公司
110.35396099754809,19.991312416337692,海口诚科工程检测咨询有限公司
110.32656121354019,19.985755515164843,海口汉普知识产权代理有限公司
110.34069346761217,20.056374711517023,海口山维测绘技术服务有限公司
110.30982299653272,20.02695432522618,海口天时同城网络科技有限公司
110.3423925445591,20.062402652027995,海口影动创意文化传媒有限公司
110.31207816757401,20.026510795289408,海南奥肯虫害防治科技有限公司
110.28026968709564,19.984198311114643,海南宝秀节水科技股份有限公司
110.72503174155072,19.73378227493641,海南碧桂园房地产开发有限公司
109.65718955191454,19.898215865828604,海南波莲水稻基因科技有限公司
110.32490062217369,20.04942849638633,海南博鳌恒大国际医院有限公司
109.52463187623789,18.288920528021844,海南诚业建设项目管理有限公司
0.0,0.0,海南传奇智力体育科技有限公司
109.48185761877168,18.314619392200328,海南春蕾南繁实业发展有限公司
110.295296639134,20.020914441833217,海南大益建设工程咨询有限公司
0.0,0.0,海南德Z置业投资有限责任公司
110.31072882032954,20.031493424217285,海南第一投资控股集团有限公司
110.45407364874883,19.249076101640316,海南多元槟榔产业发展有限公司
110.39428686389317,20.008686840336637,海南发展控股置业集团有限公司
110.3539151650645,20.02803997392093,海南甘霖农业科技发展有限公司
110.3183401277311,19.93574991331793,海南高速公路东线建设有限公司
0.0,0.0,海南公路建设项目管理有限公司
110.0055584676094,19.732339168510357,海南国瑞兴业商业管理有限公司
0.0,0.0,海南海榔生态农业开发有限公司
110.29247570653428,20.00388073020452,海南海润生物科技股份有限公司
109.18067412109214,19.767113040112413,海南汉地阳光石油化工有限公司
0.0,0.0,海南航达工程建设监理有限公司
0.0,0.0,海南恒运天泽信息科技有限公司
0.0,0.0,海南鸿年项目管理顾问有限公司
0.0,0.0,海南华建工程监理咨询有限公司
110.34464319292256,20.055439957786945,海南华磊建筑设计咨询有限公司
108.72861268354238,19.104152904771,海南华润五丰农业开发有限公司
110.16025920437657,19.964774520792243,海南华研胶原科技股份有限公司
109.57828219974192,19.502823304437165,海南吉虹云裳文化传媒有限公司
110.58044994688986,19.15976903115332,海南济民博鳌国际医院有限公司
0.0,0.0,大唐万宁天然气发电有限责任公司
0.0,0.0,大小咨询与调查(海南)有限公司
108.69569317396792,18.767791781026887,东方市文瀚现代农业科技有限公司
0.0,0.0,国家能源集团海控新能源有限公司
0.0,0.0,海口诚信鑫财务管理咨询有限公司
110.25896691314084,19.99743289685316,海口国家高新区发展控股有限公司
0.0,0.0,海口莱富特节能环保工程有限公司
0.0,0.0,海口市公交场站投资建设有限公司
110.35796983619963,20.02522053723846,海口泰昌制冰有限公司泰子道酒店
110.55803014591164,19.917137341944137,海南(潭牛)文昌鸡股份有限公司
110.4138457453589,19.98825345893278,海南宝翔行汽车销售服务有限公司
109.57828219974192,19.502823304437165,海南槟郎谷黎苗文化发展有限公司
110.76340451492959,19.567796412000327,海南传味文昌鸡产业股份有限公司
109.72480985209393,19.80776369903368,海南德大鸿建筑装饰工程有限公司
110.2708044454827,19.954270701916336,海南电网有限责任公司海口供电局
109.78787768708786,19.290525311801833,海南法米拉水上科技产业有限公司
0.0,0.0,海南广源隆节能环保股份有限公司
0.0,0.0,海南亨廷顿医院管理咨询有限公司
110.24795728499,19.988635859164514,海南葫芦娃药业集团股份有限公司
110.28059572296029,18.67255258293682,海南华润石梅湾旅游开发有限公司
109.52621041097619,19.504401176094387,儋州牧春绿色生态农业开发有限公司
110.30487337540326,20.02758177565561,国药集团健康实业(海南)有限公司
110.34209633348907,20.020946866083985,海航基础设施投资集团股份有限公司
110.34730849777984,20.021324134021235,海口联合农村商业银行股份有限公司
110.27739651419598,20.00785532500149,海口市秀英区城市建设投资有限公司
110.16680945426016,19.974159634857795,海口中升捷丰汽车销售服务有限公司
0.0,0.0,海南埃克斯伦科技发展有限责任公司
108.66411802578176,19.09363293731444,海南东方中科海洋生物育种有限公司
110.32774110468121,20.01415784247041,海南凤凰新华出版发行有限责任公司
110.205822324519,19.937372101746078,海南供销大集金服信息科技有限公司
110.31808423003626,20.00279281976343,海南广播电影电视传媒集团有限公司
110.34017844366689,20.02041685932633,海南国际资源(集团)股份有限公司
110.39064392027993,19.33184521320593,海南海建鑫网智能科技股份有限公司
109.56416203517179,18.285413199025935,海南华诚之星汽车销售服务有限公司
0.0,0.0,海南寰亚生态环境工程咨询有限公司
110.34151743593654,20.02333788119526,海南火山玫瑰庄园投资发展有限公司
110.29665091021701,20.02420398449583,国家电力投资集团有限公司海南分公司
110.20473125092403,20.027392140320107,海口市地下综合管廊投资管理有限公司
110.3620674400304,20.0305702468422,海口市统筹城乡发展(集团)有限公司
110.33426161932235,20.033579646721233,海口市医疗健康产业投资发展有限公司
110.12723943150732,19.901183332810383,海南澄迈农之子农业技术开发有限公司
110.368034262152,20.005818235524135,海南大洲金丝燕生态农业开发有限公司
109.48450226338338,18.28844283743832,海南德Z正邦房地产开发有限责任公司
110.73246279966246,19.68999244858674,海南东来房地产评估工程咨询有限公司
110.02861968149026,18.512857590448,福建省城乡建设股份有限公司海南分公司
110.32206402241128,20.009675956427472,福建省中扩建设工程有限公司海南分公司
0.0,0.0,海南大通振业投资项目咨询管理有限公司
0.0,0.0,北京中瑞诚会计师事务所有限公司海南分所
110.29922996527627,20.023387040531485,广西建工集团联合建设有限公司海南分公司
110.32668093903695,19.985890398729452,广州三环专利商标代理有限公司海口分公司
113.60109182127047,22.64375326218323,广州市适然环境工程技术有限公司海南分公司
110.49559069372951,19.146364519201498,海南博鳌瑞达麦迪赛尔国际医疗中心有限公司
0.0,0.0,北京八大处房地产开发集团有限公司海南分公司
110.31208714772451,20.026518785246168,海南方正会计师事务所(普通合伙)
110.31636374305741,20.027674731093274,海南海昌会计师事务所(普通合伙)
110.32633161773657,20.026411698816723,海口普信永和会计师事务所(普通合伙)
0.0,0.0,海南国瑞华健会计师事务所(普通合伙)
110.31208714772451,20.026518785246168,大华会计师事务所(特殊普通合伙)海南分所
109.5766802973365,19.522902596417943,儋州市教育局教学教研室
110.36363180567454,20.031411882678448,海口市龙华区教学研究室
110.31698674380273,20.001105498317088,海口日报社
108.94845760399535,19.329977458620803,昌江县十月田镇政府
110.33800653918912,19.993193204139708,白沙黎族自治县环境保护监测站
109.43858660583122,19.223275160205,保亭黎族苗族自治县文化广电出版体育局
110.31830851172906,20.026389982541566,海口市国土资源信息化建设与宣教管理中心
110.32722404928907,20.056709078230522,海南大学保卫处
110.32194951090713,20.063027358715836,海南大学财务处
110.32443417735662,20.058821144941852,海南大学教务处
110.32273792942168,20.059579010129244,海南大学体育部
0.0,0.0,海南大学学报编辑部
110.328954889074,19.985392657616323,海南大学招生与就业处
110.3262550207846,20.06045201402195,海南大学信息化服务中心
108.66118420118553,19.107671020513237,东方市教育教学研究培训中心
110.3188145431902,20.062013496226538,海南大学南海海洋资源利用国家重点实验室
110.00834072181658,19.733121397177403,澄迈县中医院
108.64454332095798,19.10032935662689,东方市文化馆
110.35442460915715,20.0394036050927,海口市体工队
110.31587964755558,20.030790228500006,《天涯》杂志社
109.57224582256555,19.50743317306061,儋州市人民医院
109.55895718388413,19.52119729218989,儋州市中医医院
110.34162732480527,19.692797201143435,定安县人民医院
108.64825562026444,19.09716607716124,东方市委宣传部
110.31135955210802,19.99103868130606,海口广播电视台
110.33724256501866,20.062942401868572,海口市人民医院
110.19403787859146,20.049403216663524,海口市信息中心
110.49192722319644,19.154745468970727,慈铭博鳌国际医院
109.50653919566098,18.273453916116974,儋州市环境监测站
110.3183963183239,20.02636679660021,海口市土地测绘院
110.01993985870124,19.785998493828135,海南澄迈思源高中
110.3181141623052,20.002820786188668,海南广播电视总台
110.0178151021929,19.78663894957874,澄迈县教师研训中心
110.33861411505394,19.666527062651383,定安县气象局气象台
108.65505347328254,19.101288689043326,东方市农业服务中心
110.35748171143273,20.006157425122957,海口市气象局气象台
110.3183344467407,20.02653505365513,海口市土地交易中心
110.34751605730042,20.021694090520615,海南昌宇律师事务所
109.44891462313034,19.224906640615906,白沙黎族自治县文化馆
110.49240678145709,19.14987791320974,博鳌一龄生命养护中心
110.46366221768501,19.98552018115358,海口桂林洋经济开发区
110.33357214137027,20.052741795661575,海口市教育研究培训院
0.0,0.0,白沙鸿晟种养专业合作社
0.0,0.0,澄迈衍旭种养专业合作社
110.32278600312375,20.056091039939243,儋州大皇岭农业开发中心
110.34089496133964,19.691204484523755,定安县农业技术推广中心
110.29290654733269,20.011256189037518,海口龙华晖鑫名车维修行
110.32540968865521,20.064732155115816,海口市公共资源交易中心
110.25923546861362,20.022190317226073,海口市骨科与糖尿病医院
110.33742390611236,20.029642526631708,海口市农业技术推广中心
110.31832846662768,20.026406958742175,海口市土地储备整理中心
109.70261606266116,18.636257315764126,白沙黎族自治县民族博物馆
109.67823022545643,18.451018479272538,保亭县新农种养专业合作社
110.58855295313539,19.182084694996284,大庆油田海南人才培训中心
110.32272302933328,19.59195336909877,定安龙田坡种养专业合作社
110.32456046893004,20.04776977438795,海口龙华周氏兄弟工艺品店
110.36108127816878,20.02735391543629,海口市城市规划设计研究院
110.35123914697154,20.031213842561403,海口市粮油产品质量监测站
110.57659299988636,19.926748992231097,海口市美兰区三江镇茄芮村
110.32521313855649,20.06453336662243,海口市市政工程设计研究院
110.40354041193257,19.973760373861403,海南海世界贝壳文化博物馆
109.70948206635117,18.29204848206268,301解放军总医院海南医院
109.4829046750453,19.19237905900611,白沙县五里路茶叶专业合作社
109.04622005133294,19.32527390262083,昌江保突黎陶制品专业合作社
0.0,0.0,澄迈宏大家禽养殖专业合作社
0.0,0.0,澄迈慧牛种养农民专业合作社
0.0,0.0,澄迈牧流山羊养殖专业合作社
0.0,0.0,儋州农信农业产销专业合作社
110.72682283315609,19.62346265734988,定安新竹南华养殖专业合作社
0.0,0.0,东方信上种植农民专业合作社
110.3371930488703,20.03653766664048,海口龙华阿祥珍材雕刻工作室
110.33462782837108,20.052504628122314,海口龙华亨之丽美发美容中心
110.32490362511906,20.02998038449143,海口市规划勘察测绘服务中心
110.32479585883978,20.030119705829538,海口市文化艺术传播研究中心
109.46293848519727,19.14072875133856,白沙灿然黎锦手工艺专业合作社
110.1863116471834,19.77310007554839,澄迈润来种养殖农民专业合作社
110.35726060858215,19.97750297562313,海口海农协蔬菜产销专业合作社
110.31830851172906,20.026389982541566,海口市环境信息和宣教管理中心
110.22834208932095,19.784801292026593,海口统历岭蔬菜种植专业合作社
110.4013164861272,19.976025781838874,海南方元特殊儿童康复服务中心
109.69881132603386,18.63655504035147,保亭黎族苗族自治县农业服务中心
109.61368971986919,18.409653187939565,保亭县六弓乡详盛专业种养合作社
109.05158402620401,19.114327657742685,昌江七叉红峰科技种养专业合作社
110.08280570281642,19.569964779496537,澄迈加乐雅尚沉香种植专业合作社
110.1863116471834,19.77310007554839,澄迈瑞洋林下养殖农民专业合作社
109.010418239885,19.465638513814223,儋州加乐海地农业种植专业合作社
110.35443209872136,20.029775613796158,海南国源土地矿产勘测规划设计院
109.29813006476782,19.315444987388496,白沙县青松乡仙婆岭种养专业合作社
109.04503281655121,19.315106631776917,昌江拜亮黎陶传统手工艺专业合作社
109.05053006277053,19.27424892896665,昌江石碌周金甫大师玉石雕刻工作室
116.72356322257586,39.92830927466759,北京京师名流工程技术研究院海南分院
110.21691776410022,19.92965707124075,海口市石山火山群国家地质公园管理处
110.28927405113038,20.00979645075035,海口市秀英区政府投资建设项目审计中心
108.795770002594,19.11985937412871,东方市三月三广场黎锦纺染织绣技艺传承馆
0.0,0.0,昌江县王下黎祖生态旅游农业开发服务专业合作社
110.67058865215112,19.607856286020223,海口海关(海南出入境检验检疫局)热带植物隔离检疫中心
110.31208714772451,20.026518785246168,海南佳明会计师事务所(普通合伙)
110.32251588434137,20.03146317458663,海南佳深工程造价咨询有限公司
110.31954015161214,19.99986762439405,海南家园生态农业综合开发有限公司
109.82689335958918,19.036404897611092,海南建设工程股份有限公司
110.25759602618723,20.01250406519093,海南建设工程机械施工有限公司
110.3277447647225,19.962704173158176,海南降香缘花梨生态林业开发有限公司
110.3716219282931,20.009514359912778,海南交控公路工程养护有限公司
0.0,0.0,海南交控汇金股权投资基金有限公司
110.33809293698296,20.02038361902399,海南交控置业有限公司
110.33823732919352,20.026052058783662,海南教育期刊社有限公司
110.32860556307938,20.025946982482825,海南杰锋系统工程有限公司
0.0,0.0,海南捷云信息科技有限公司
110.31123875849262,19.992083771894006,海南金富达实业有限公司
110.38582688240363,19.940070838719347,海南金港生物技术股份有限公司
109.18222061702251,19.780360474637757,海南金海浆纸业有限公司
0.0,0.0,海南金鸿运厨房设备安装工程有限公司
110.3040676857149,20.014950715264685,海南金垦赛博信息科技有限公司
110.3028512830173,19.99332589052788,海南金盘职能科技股份有限公司
110.3500630487088,20.019919383495015,海南金融控股股份有限公司
0.0,0.0,海南金易安网络科技有限公司
110.31173564979804,19.973417377044672,海南金渔创新科技有限公司
110.30408682658394,19.99204766720917,海南锦瑞制药有限公司
0.0,0.0,海南锦信税务师事务所有限公司
110.31946583826898,19.989788400291335,海南京润珍珠生物技术股份有限公司
110.51487116746169,19.984128817509298,海南经贸职业技术学院
0.0,0.0,海南九鼎置地有限公司
110.25590247546558,20.003394211417366,海南九芝堂药业有限公司
0.0,0.0,海南君佳项目管理有限公司
109.56516751719651,19.76245372818077,海南菌原生态农业有限公司
109.58645116615929,19.52282492909985,海南开泰东山羊产业有限公司
110.48190548618612,20.009679084006596,海南开维集团有限公司
0.0,0.0,海南康途商旅服务有限公司
110.37722084151143,19.9899938901973,海南科创建设项目管理有限公司
110.405326705909,20.044496587474935,海南科技职业大学
0.0,0.0,海南科力千方科技有限公司
110.3196051727701,20.035285894170034,海南可动软件技术有限公司
110.31934574083282,20.03544952344535,海南口腔医院有限公司
110.42682785380586,18.90718296055088,海南口味王科技发展有限公司
109.04771673090089,19.247341638395184,海南矿业股份有限公司
109.30189349595416,19.808579293886044,海南蓝岛环保产业股份有限公司
108.99928787284908,19.317796350482222,海南蓝祥联农科技开发有限公司
0.0,0.0,海南浪潮云计算科技有限公司
0.0,0.0,海南浪漫天缘海上旅业有限公司
109.57828219974192,19.502823304437165,海南乐达文化投资有限公司
109.86926185118406,18.420482964949247,海南雷丰芒果农民专业合作社
110.45510981475796,19.892907016829845,海南立N净水科技实业有限公司
110.33172404209235,20.037143360677323,海南立信长江会计师事务所(普通合伙)
0.0,0.0,海南丽Z建设工程有限公司
110.30042859203947,20.023544145900146,海南利蒙特生物农药有限公司
108.74711515127139,18.56616249344362,海南连兆丰农业开发有限公司
110.31069688378162,20.03159356611985,海南联合资产管理有限公司
110.39297654686736,18.80050779747704,海南链家旅居产业科技服务有限公司
109.69317161289061,19.92140324962789,海南临高思源实验学校
109.83725223485604,18.3918919986515,海南陵水碧桂园润达投资置业有限责任公司
109.48898156726075,18.27610009153616,海南领海实业有限公司
0.0,0.0,海南领投信息科技有限公司
108.74904503905161,18.62115885711697,海南龙栖湾发展置业有限公司
110.33618787643506,20.005101434677034,海南龙泉技工学校
110.32445476925932,20.00798999057264,海南龙拓网络科技有限公司
109.4949197609707,18.273531083293616,海南路桥工程有限公司
108.68324970867215,18.980614121953334,海南路桥实业开发有限公司
0.0,0.0,海南旅居云创科技有限公司
110.3140162908239,19.689174738123135,海南绿槟榔科技发展有限公司
109.95480628648947,18.41766274731508,海南绿城高地投资有限公司
110.2609556348325,19.93591498449987,海南绿色能源与环境工程技术研究院有限公司
110.37228272596415,19.99623765781436,海南绿藻世界生物科技有限公司
0.0,0.0,海南懋公律师事务所
110.46503242931855,19.105442107772422,海南么彬农业发展有限公司
109.60239543321455,18.237401960919,海南玫瑰谷产业发展有限公司
110.38196487558253,19.987533294560382,海南美年大健康医院有限公司
110.26488505034959,19.942549896412057,海南美亚电缆厂有限公司
110.3317659481135,20.03716329821177,海南民爆器材专营有限公司
110.30451608866468,20.028042790025033,海南民航凯亚有限公司
0.0,0.0,海南明发国际投资有限公司
0.0,0.0,海南明珍古典家具有限公司
0.0,0.0,海南木养元大健康产业有限公司
108.72861268354238,19.104152904771,海南牧隆生态农业有限公司
110.2785881414233,20.022132807867706,海南南国绿洲生产资料有限公司
110.31958343888667,19.992457391164095,海南南海网传媒股份有限公司
110.80365567245362,19.500799424206345,海南南海云控股股份有限公司
110.11528254014675,19.948708203698516,海南南海之巅文旅发展有限公司
110.29773491644576,20.02255583937415,海南纽康信息系统公司
108.83385449588044,18.491208396385467,海南农乐南繁科技有限公司
109.84911833160503,19.0438764649327,海南农乡牧生态农业开发有限公司
110.30262081736373,19.99202721349587,海南拍拍看信息技术有限公司
0.0,0.0,海南鹏越勘测设计研究有限公司
110.4689115264499,19.974407943268517,海南普利制药股份有限公司
0.0,0.0,海南柒玖陆科技有限公司
110.28607459861433,20.02574123917648,海南千君信项目管理有限公司
0.0,0.0,海南千艺科技产业园开发有限公司
0.0,0.0,海南强光实业有限公司
110.31961430723447,20.032299401219007,海南清源税务师事务所有限公司
110.31593978895803,20.025501728522293,海南庆禾钢结构设计咨询有限公司
110.31088982088136,20.024784562571206,海南庆林工程咨询管理有限公司
109.79842865543527,19.042590687999972,海南琼中大地农业发展有限公司
109.84484162972991,19.0449661716872,海南琼中思源实验学校
110.11268097509291,19.95494518486193,海南全天艺术有限公司
109.52989592954145,18.31333910373412,海南热带海洋学院
109.51451033264246,18.770296211749162,海南热带海洋学院附属中学
110.47686189528338,19.248907025266313,海南热带汽车试验有限公司
110.24472768097408,19.773690794610623,海南热带野生动植物园有限公司
109.04947127521895,19.26439385024677,海南日报报业集团
110.35755120680237,20.032521202755174,海南荣德诚会计师事务所(普通合伙)
0.0,0.0,海南荣胜雕刻发展有限公司
110.31531610976515,20.026464702447576,海南融创基业房地产有限公司
110.32107919880822,20.010059153843084,海南儒艺交通规划勘察设计有限公司
110.4702778392981,19.252650844828615,海南软件职业技术学院
0.0,0.0,海南瑞和生态建设有限公司
109.57146869354293,18.28179052544392,海南瑞泽双林建材有限公司
109.57136761169797,18.281672384320412,海南瑞泽新型建材股份有限公司
0.0,0.0,海南睿通工程咨询有限公司
110.31946583826898,19.989788400291335,海南润京实业有限公司
0.0,0.0,海南润泽电教工程有限公司
109.50844458147172,18.252488362445384,海南赛猜宝网络科技发展有限公司
110.32070165687085,20.036749017866256,海南赛迪工业和信息化研究院有限公司
110.4140585294332,19.994182534286296,海南赛立克药业有限公司
110.2904698121366,19.95444782414599,海南赛诺实业有限公司
110.30829568072191,20.018545134888306,海南三叶投资有限公司
110.3051551469901,20.001317473533202,海南三叶制药厂有限公司
110.29565092598894,20.021839641153615,海南三友海洋科技有限公司
110.28616760673849,20.022623523477094,海南三元星生物科技股份有限公司
0.0,0.0,海南桑乐新能源科技股份有限公司
110.30294718473405,19.99145116773874,海南森祺制药有限公司
0.0,0.0,海南森瑞谱生命科学药业股份有限公司
110.31208714772451,20.026518785246168,海南森源税务师事务所(普通合伙)
110.29307967693302,20.022064893478195,海南尚铭科技有限公司
110.33429386950526,20.065818233515145,海南深勘勘察设计有限公司
0.0,0.0,海南神农基因科技股份有限公司
110.46118678565594,19.979004422033988,海南升荣房地产开发有限公司
110.11914825469478,19.950372236237786,海南生态软件园集团有限公司
110.33287061001823,19.996612569339444,海南省安宁医院
0.0,0.0,海南省爆破技术工程院
110.32982495239017,20.04312190204209,海南省贝壳行业协会
110.37459061055263,20.017224830164277,海南省博物馆
110.36026561348751,20.00952224073975,海南省财税学校
110.30107516980019,20.026155209468143,海南省财政厅
0.0,0.0,海南省财政信息中心
110.0178151021929,19.78663894957874,海南省澄迈县教师研训中心
110.07644746687937,19.812430542803817,海南省澄迈县美亭供销社
109.95161815378972,19.92122204459235,海南省澄迈县桥头镇昌大村
110.35464970910682,20.0294089750034,海南省畜牧技术推广总站
0.0,0.0,海南省大伟雕艺有限公司
109.57328320116586,19.51691814398345,海南省儋州市第一中学
109.54229979735068,19.586623365426483,海南省儋州市那大镇洛南村委会塘坡村
109.54755442369893,19.519295310422166,海南省儋州市农产品质量安全检验检测站
109.30899243839376,19.71680406385546,海南省儋州市新州中学
109.26491671274943,19.44345415005035,海南省儋州市雅星中学
110.34635643736331,20.021367788180875,海南省党政信息中心
110.3188145431902,20.062013496226538,海南省地球观测重点实验室
110.3194889267865,20.006410153926797,海南省地质测试研究中心
110.47091461804041,19.876292432943526,海南省地质调查院
110.32892204992501,20.022236302165027,海南省地质环境监测总站
110.31980623413165,20.0061663475226,海南省地质基础工程院
110.20070054915067,20.04535324500564,海南省地质经济发展研究院
110.32273368078296,20.00671822195851,海南省地质综合勘察院
110.3482011002851,20.032660035577695,海南省第八十三国家职业技能鉴定所
109.48981517971494,18.271254958385036,海南省第三人民医院
110.33393536818846,20.013772822140808,海南省第五人民医院
0.0,0.0,海南省东方市黎族传统纺染织绣技艺市级传承基地
108.64067630174569,19.097658839188725,海南省东方市人民医院
110.36152540087926,20.01058239002525,海南省动物卫生监督所
110.36167414635243,20.010636233299238,海南省动物疫病预防控制中心
110.34661594935059,20.020545663235968,海南省发展控股有限公司
110.41458050040971,20.018400030637054,海南省辐射环境监测站
110.33694333550875,20.003050337958936,海南省妇幼保健院
110.35967528799276,19.99712677562842,海南省干部疗养院
110.3235747136023,20.046982005717435,海南省港航管理局测量队
110.34913103032429,19.670419100706674,海南省工业学校
110.32425744406319,20.042037609840296,海南省工艺美术学会
110.32899931328402,20.03309916577869,海南省供销学校
110.35063377439569,19.965283138983608,海南省国兴中学
110.29850435486327,19.054945661583794,海南省国营东平农场食品厂
110.34635643736331,20.021367788180875,海南省海防与口岸办公室信息中心
110.31966103601938,20.054815947373232,海南省海口航道所
110.35748171143273,20.006157425122957,海南省海口市气象局
110.47091461804041,19.876292432943526,海南省海洋地质调查研究院
110.2981785277472,20.013437536222707,海南省海洋监测预报中心
110.4078873922991,20.017602308332812,海南省海洋与渔业科学院
109.92492139246923,19.04810513494695,海南省航道疏浚工程队
110.34124978073326,19.989243057114344,海南省核工业地质大队
109.50795342582886,18.24739312760535,海南省环境地质勘察院
110.41297190666631,20.0162510865682,海南省环境科学研究院
110.34400389108811,19.990890553153104,海南省机电工程学校
110.35395403005835,20.029214888060345,海南省疾病预防控制中心
110.12260263545056,19.94005945552325,海南省技师学院
108.81090613156587,18.69972243585884,海南省尖峰岭林业局
110.35756809587984,20.03405845235813,海南省建设工程顾问监理有限公司
110.33326749442332,20.020445611268254,海南省建设集团有限公司
110.35645837367467,20.02907095673449,海南省建设项目规划设计研究院有限公司
110.04311313705242,19.939047701186347,海南省建筑产业化股份有限公司
110.35201982288389,20.008360624151173,海南省建筑设计院
110.3214904455041,20.0069037493532,海南省交通规划勘察设计研究院
110.3380909433327,20.02034459027672,海南省交通投资控股有限公司
110.28671977397815,19.982181186652383,海南省交通学校
110.36120409748315,20.007702436041324,海南省教育研究培训院
110.32716203101263,20.0212288149772,海南省金林投资集团有限公司
110.3421801891713,20.001122258556627,海南省经济技术学校
109.04048298216554,19.249854253935204,海南省九三四地质大队
110.33589959222569,20.041883480936438,海南省军区幼儿园
110.10409586194324,19.36246299737117,海南省蓝波新能源科技有限公司
108.76375060218258,18.53290237632886,海南省乐东县黄流镇新民村
110.35123914697154,20.031213842561403,海南省粮油产品质量监督检验站
110.35148766846946,20.031094343387362,海南省粮油经济信息中心
110.36096132189768,19.992218914561626,海南省林业科学研究院
110.36274531619927,20.03042722594769,海南省林业总公司
110.02965925813145,18.505191758813023,海南省陵水县气象局
110.29761917052892,20.00251939554358,海南省路桥投资建设有限公司
110.09601593704257,19.395051686603797,海南省旅游信息和咨询服务中心
0.0,0.0,海南省民间文艺家协会
110.35219422129546,20.032554423783946,海南省民政厅信息中心
109.51808799954568,18.77290126242706,海南省民族技工学校
109.51781491011508,18.780310124976893,海南省民族研究所
110.31750221307696,20.02800284965552,海南省南海现代渔业集团有限公司
109.47241387038834,19.194265961417273,海南省农垦白沙茶业股份有限公司
0.0,0.0,海南省农垦草畜产业集团有限公司
0.0,0.0,海南省农垦草畜科技股份有限公司
110.61873603277336,19.616199870753572,海南省农垦东昌农场有限公司
110.30368491489682,20.00631721924719,海南省农垦海口中等专业学校
110.36302070831707,20.014240431088947,海南省农垦机关物业服务有限公司
110.29774380321905,20.02442237360837,海南省农垦集团财务有限公司
110.30635223207605,20.0095681888962,海南省农垦建工集团有限公司
110.29774380321905,20.02442237360837,海南省农垦金融控股有限公司
110.28053506354183,19.96928363072169,海南省农垦科学院集团有限公司
110.30412156887603,20.01507172089808,海南省农垦林产集团股份有限公司
109.67409648055875,19.45820746539687,海南省农垦旅游集团有限公司
110.30346867722635,19.252070309935757,海南省农垦母瑞山农场有限公司
109.18102219370451,18.36438933680203,海南省农垦南繁产业集团有限公司
109.17827557202591,18.359993068568095,海南省农垦南繁种业有限公司
109.15949441069905,18.77210498310865,海南省农垦荣光农场有限公司
110.30761975031852,20.006113038207356,海南省农垦设计院有限公司
110.29774380321905,20.02442237360837,海南省农垦实业集团有限公司
110.30146712262989,20.01184265747353,海南省农垦投资控股集团有限公司
110.72852320998366,19.511931525973306,海南省农垦文丰文昌鸡产业(集团)有限公司
110.30356775968582,20.013976784385882,海南省农垦五指山茶业集团股份有限公司
110.29774380321905,20.02442237360837,海南省农垦西培农场有限公司
110.29774380321905,20.02442237360837,海南省农垦现代物产集团有限公司
0.0,0.0,海南省农垦信用担保有限公司
110.35392698259466,20.050215321336324,海南省农垦烨运宏实业有限公司
109.9463427044184,19.318240898271043,海南省农垦中坤农场有限公司
110.3055043699365,20.00234870886828,海南省农垦中学
110.28040041579355,20.00531868093516,海南省农垦资产管理有限公司
0.0,0.0,海南省农垦自然资源开发运营有限公司
110.35790379285217,20.009198333688413,海南省农民科技教育培训中心
0.0,0.0,海南省农业机械鉴定推广站
108.72861268354238,19.104152904771,海南省农业交流协会
110.36092231819575,20.01267895384634,海南省农业科学院
110.30321436008676,19.97748512053288,海南省农业生态与资源保护总站
110.32850272405973,19.988734288669153,海南省农业学校
110.33391441472097,20.013765855519708,海南省皮防性病防治中心
109.51466565703248,18.79367743613998,海南省平山医院
110.46641140196022,19.25112122470281,海南省气候中心
110.24586726300599,19.996394401231193,海南省气象服务中心
0.0,0.0,海南省气象科学研究所
110.3907041266409,18.794442741294926,海南省气象台
110.24623527465302,19.995132347488376,海南省气象探测中心
110.3550510933681,20.026822214969446,海南省气象信息中心
108.62169704756899,19.095511880840895,海南省气象灾害防御技术中心
110.48206267955753,19.20915341146856,海南省琼海市气象局
110.35400289882713,20.029956427215893,海南省琼剧院
109.89821229518458,19.141347877240015,海南省琼中县乌石学校
110.34635643736331,20.021367788180875,海南省人大常委会机关信息中心
0.0,0.0,海南省人工影响天气中心
110.28342778057817,20.006870135333255,海南省人民医院
109.51067081222199,18.296627733335328,海南省三亚技师学院
109.45918103007045,18.320325070634297,海南省三亚市哈尔滨医科大学鸿森医院
109.52094368677717,18.301293493928714,海南省三亚市吉阳区南新小学
109.53721668899449,18.233627232392138,海南省三亚市气象局气象台
109.51037114052538,18.783635536386598,海南省三亚质量技术监督技术所
110.27515227231969,20.01182208111962,海南省商业学校
110.36720409581199,20.013780819753606,海南省社会科学院
110.47123374893584,19.262378436124884,海南省食品药品检验所琼海分所
110.29834719395733,20.013563360627845,海南省水产品质量安全检测中心
108.92004404859924,18.449475082470773,海南省水利电力集团有限公司
110.2800689234598,20.00480065445092,海南省水利水电建设工程有限公司
110.33794620447229,20.002139741049966,海南省水文地质工程地质勘察院
110.35781221269431,20.023431281986774,海南省水文水资源勘测局
110.41429720295102,19.983427787873886,海南省水务集团有限公司
109.05355796006066,19.264235264653397,海南省天然橡胶产业集团股份有限公司
110.33437657425915,20.029584119422566,海南省天然橡胶质量检验站
110.31039180257238,20.026487893383752,海南省通信产业服务有限公司
110.31039180257238,20.026487893383752,海南省通信产业服务有限公司物业管理分公司
110.36728478317374,20.01740773520123,海南省图书馆
110.46644506125104,19.239675340698376,海南省土地储备整理交易中心
110.33441350067515,20.029436928480095,海南省土壤肥料总站
110.09926957557992,19.37396897364674,海南省屯昌县红旗中学
110.09811614476745,19.35770404133259,海南省屯昌县气象局
110.24506453715281,19.992882481094234,海南省托老院
110.34122163929327,18.7949004130751,海南省万宁市思源实验学校
110.37047316902671,20.01632923412875,海南省文学艺术界联合会
109.51521390662909,18.778075851199837,海南省五指山市第一小学
109.50535083430837,18.78418967335639,海南省五指山市番茅村委会福建村
109.51822970503368,18.766072976492115,海南省五指山市通什镇番香村委会三队
109.50689752086353,18.778641557810317,海南省五指山市五指山中学
0.0,0.0,海南省先进天然橡胶复合材料工程研究中心有限公司
110.36145452182633,20.0105674738459,海南省现代农业检验检测预警防控中心
0.0,0.0,海南省小椰壳实业有限公司
110.28277193738859,20.00403063027819,海南省血液中心
109.51420277972252,18.272334963471277,海南省烟草公司三亚公司
110.28476170046568,20.006532083316284,海南省眼科医院
109.22122243706264,19.747256420030887,海南省洋浦第一小学
109.22359445773452,19.765739583400993,海南省洋浦技工学校
109.20288439085697,19.763559358892575,海南省洋浦开发建设控股有限公司
110.32043824377726,19.998136476870034,海南省药品检验所
110.25764499306905,19.992949806675245,海南省药物研究所
108.72861268354238,19.104152904771,海南省一方诚果农业科技有限公司
110.28255897084509,20.009730637667108,海南省医学学术交流管理中心
110.32453948275892,20.009863384260182,海南省银行学校
110.35307367481342,20.029792742529576,海南省政府国有资产监督管理委员会信息中心
110.36150144435773,20.010527376849062,海南省植物保护总站
110.01487454430597,18.482389608893406,海南省中央民族大学附属中学陵水分校
110.34997785427046,20.046003143380002,海南省中医院
110.18064745122042,20.04433175953284,海南省肿瘤医院
110.3563147780348,20.026373934055936,海南省种子总站
110.3007817597831,20.026065636543194,海南省注册会计师管理中心
110.31839631719423,20.00707278104717,海南省资源环境调查院
109.50730348108169,18.24953395707554,海南省自然资源和规划厅信息中心
110.29735055969044,20.024435031655546,海南圣力石化工程有限公司
109.56342964846824,19.53057388232766,海南盛达建设工程集团有限公司
110.40377760337464,19.759441377994523,海南盛大现代农业开发有效公司
0.0,0.0,海南盛果科技开发有限公司
110.2520321040756,20.007010437354023,海南盛世欣兴格力贸易有限公司
110.33925659184438,19.997962885291514,海南师范大学
110.41601325834752,19.979762092721465,海南师范大学附属中学
110.50772047805381,19.98203027189587,海南师范大学文学院
0.0,0.0,海南诗波特投资有限公司
108.72861268354238,19.104152904771,海南时食农业科技发展有限公司
110.34526770624082,20.059123916565323,海南世宏房地产评估有限公司
110.319887579374,20.015317790862273,海南世佳工程勘察设计咨询有限公司
0.0,0.0,海南事事帮机器人信息科技有限公司
0.0,0.0,海南数字部落信息科技有限公司
109.50802162336134,18.24730429781941,海南水文地质工程地质勘察院
110.25136916293656,19.9911153931632,海南思坦德科技集团有限公司
110.4626595753971,19.99102015063707,海南思香源食品有限公司
0.0,0.0,海南斯博立特新能源科技有限公司
109.4435620494962,19.218072167793522,海南斯盛德测绘有限公司
0.0,0.0,海南随手电子商务有限公司
110.08315864474233,19.936854089526598,海南太和科技有限公司
110.31474459499442,20.041305077832742,海南体育赛事有限公司
110.37053412008682,20.015623582666937,海南体育职业技术学院
0.0,0.0,海南天泓基业投资有限公司
110.30329868251135,20.026128340888786,海南天鸿市政设计股份有限公司
110.46635343530153,19.227874233182177,海南天汇能源股份有限公司
110.46635343530153,19.227874233182177,海南天汇能源股份有限公司牛路岭分公司
110.25064269957814,20.005162203890436,海南天鉴防伪科技有限公司
0.0,0.0,海南天九双众企业管理有限公司
110.3169247202416,20.023534235615184,海南天能电力有限公司
110.30490031953092,20.027585731203683,海南天然橡胶产业集团股份有限公司
109.05355796006066,19.264235264653397,海南天然橡胶产业集团股份有限公司龙江分公司
110.30490031953092,20.027585731203683,海南天然橡胶产业集团股份有限公司山荣分公司
109.87634105871749,18.960858379824387,海南天然橡胶产业集团股份有限公司长征分公司
109.61557275662364,18.582186441280967,海南天然橡胶产业集团金橡有限公司
110.31970231623133,20.009042933818527,海南天天健瑞儿母婴服务有限公司
110.39043570803769,18.82599476284236,海南天涯人力资源管理服务有限公司
109.55172921759808,19.094516868518383,海南天涯驿站旅游项目开发有限公司
110.34455644053924,20.073290813507157,海南天卓实业投资有限公司
110.3519775658244,19.976537288150542,海南铁路有限公司
110.25833625727414,19.99882135887295,海南通用康力制药有限公司
110.21278233039577,20.00894908378841,海南通用三洋药业有限公司
110.21312776020622,20.00815782494805,海南通用同盟药业有限公司
0.0,0.0,海南仝君管理咨询有限公司
0.0,0.0,海南同邦房地产资产评估有限公司
110.34740527972949,20.021737313374132,海南图语地理信息技术有限公司
110.76132383220525,19.603280448193324,海南外国语职业学院
0.0,0.0,海南万禾投资咨询有限公司
110.35997555928738,20.001057617434373,海南万联建筑工程有限公司
0.0,0.0,海南万宁天海蓝牧业专业合作社
110.5059278820172,19.004123308126125,海南万维生物制药技术股份有限公司
110.23846095738983,19.980250034541424,海南王品农业科技开发有限公司
110.08323688666462,19.950734469636934,海南威尔检测技术有限公司
110.34410582136968,20.064825634332763,海南微氪生物科技股份有限公司
0.0,0.0,海南微盟建设工程监理有限公司
110.35192385410782,20.030459117666663,海南微软创新中心有限公司
110.33172304492861,20.03713135260779,海南维特律师事务所
109.53662689888314,18.37399717888945,海南温泉鹅产业发展有限公司
110.75348648320893,19.59233215779776,海南文昌创利农业开发有限公司
109.59193384874115,19.53415907730473,海南西部中心医院
0.0,0.0,海南夏日置业发展有限公司
110.34731249738856,20.021176004323536,海南咸益工程管理有限公司
110.3595332634179,20.00234430735366,海南现代妇女儿童医院
110.04311313730965,19.93904269707637,海南现代建筑部品有限公司
110.33004514923783,20.01065655896454,海南现代科技集团有限公司
110.35863555714577,20.026971027961405,海南香柏景观工程有限公司
110.31455202700796,20.041105273914518,海南香树沉香产业股份有限公司
110.08561689956285,19.949777703967104,海南翔泰渔业股份有限公司
110.88363554729631,19.756857839398407,海南享尚岛生态环境科技有限公司
0.0,0.0,海南橡城建设工程监理有限公司
0.0,0.0,海南逍遥旅游投资集团股份有限公司
110.25927370575255,19.997428737673285,海南欣莱医药科技股份有限公司
110.1089002250326,19.954270942233013,海南欣龙无纺股份有限公司
110.33989594994854,19.98390306182403,海南新港岛电动汽车研究院
109.05186530417306,19.28191937142883,海南新南方工程设计有限公司
110.19329646666245,19.974725049526707,海南新曦生物能源科技开发有限公司
110.2946088349029,19.983706653309007,海南新艺宝家具有限公司
110.31790326088034,20.029256128910607,海南新珠江人力资源开发管理有限公司
110.29835931636893,19.99128684638563,海南鑫北斗科技有限公司
110.45141100760902,19.896356272476286,海南信荣橡胶机械有限公司
110.35282413563425,20.030121408115143,海南信息岛技术服务中心有限公司
110.31846019528845,20.026008377957595,海南信熙电子科技有限公司
110.31474858578636,20.04131407778981,海南星捷安科技股份有限公司
0.0,0.0,海南星熠投资有限公司
0.0,0.0,海南星宇智控科技有限公司
110.33138291055499,19.977246307140916,海南兴平会计师事务所(普通合伙)
110.3708333704632,19.983746803469998,海南兴业富华会计师事务所(普通合伙)
110.34506516301883,19.67275844511711,海南熊猫乳品有限公司
109.84935880890774,18.407045844526113,海南雅居乐房地产开发有限公司
110.32665735439178,18.795288525999865,海南雅利农业开发有限公司
109.73733342875086,18.35853374096334,海南亚特兰蒂斯商旅发展有限公司
110.34770742340642,19.968890965523524,海南艳阳下农业开发有限公司
110.25994741028288,19.994024557618104,海南椰岛酒业发展有限公司
110.28229249807424,19.98782779667342,海南椰国食品有限公司
110.32400265870342,20.029607796304163,海南椰乡村实业有限公司
110.26426219959927,19.911220730915836,海南一鸿实业发展有限公司
110.52242529974437,19.142742852272402,海南一龄医疗产业发展有限公司
110.3226278993857,20.026349719673828,海南伊索网络科技有限公司
110.32987793843091,19.983357218358417,海南医学院
110.29585562286012,19.98132368321017,海南医学院第二附属医院
110.32872502908492,20.0310960260941,海南医学院第一附属医院
0.0,0.0,海南壹联邦实业有限公司
110.46058378991167,19.24983697848404,海南怡嘉工程有限公司
0.0,0.0,海南宜泷物业服务有限公司
110.09993132111799,19.967217541113296,海南颐仁医院管理有限公司
0.0,0.0,海南亿康水处理工程有限公司
110.980083947001,19.654120639272335,海南亿隆城建投资有限公司
110.07307230194687,19.95131500216086,海南忆家食品有限公司
110.33950788740418,20.020317989167353,海南易建科技股份有限公司
110.32448198903944,20.021861454171578,海南易乐物联科技有限公司
110.41634065732252,19.994654717953534,海南益尔药业有限公司
110.31485341672042,20.040142911023235,海南银风科技集团有限公司
110.00190252466274,19.761690748329322,海南银行股份有限公司
110.28083327764512,19.95654974081883,海南寅鼎实业有限公司
110.26801552720076,19.932936595268366,海南英利新能源有限公司
110.1244238111743,19.99836279313926,海南盈滨岛置业有限公司
0.0,0.0,海南营林工程监理咨询有限公司
110.33138291055499,19.977246307140916,海南永信德威会计师事务所
110.32492370383974,20.008320369315427,海南有色工程勘察设计院
0.0,0.0,海南宇佳欣贸易有限公司
0.0,0.0,海南宇阳物业服务有限公司
110.0252156808112,18.520187629219883,海南玉螺信息科技有限公司
110.34557415585483,20.057548087940102,海南昱鑫科技有限公司
110.334740019487,20.00566158636735,海南元游信息技术有限公司
0.0,0.0,海南云端环境咨询有限公司
110.40869338570889,20.058588634968498,海南云海民爆有限责任公司
110.25291379727076,20.005982354516362,海南云皓生物科技有限公司
110.20348703658945,20.017124875364633,海南振海工程有限公司
110.33493453584333,20.045181001463753,海南正邦信息科技有限公司
110.29112864829764,20.032444490485513,海南正和职业培训学校
110.25888230815022,20.010404710676973,海南正红科技发展有限公司
117.19456244289412,36.79663150187271,海南正瑞医药科技开发有限公司
110.0607378842978,19.950158798718213,海南正业中农高科股份有限公司
110.37102810249928,19.983676538261815,海南政法职业学院
110.30549357686134,19.998768755895046,海南职业技术学院
108.94413530839368,19.04688290970463,海南植壮康生物科技有限公司
109.50763774016248,18.77633486549065,海南制药厂有限公司
0.0,0.0,海南致德装饰设计有限公司
109.5262843157454,18.305603295818308,海南智海王潮会议展览有限公司
110.34665881839524,19.944619715336376,海南智慧科技有限公司
0.0,0.0,海南智量教育信息咨询有限公司
110.66974600288046,19.448892811385043,海南智盛百富商贸有限公司
0.0,0.0,海南中晨信项目管理有限公司
0.0,0.0,海南中创铭泰建筑工程有限公司
0.0,0.0,海南中德骨科医学有限公司
0.0,0.0,海南中度旅游产业开发有限公司
110.2979174710427,20.024359034120227,海南中海辉煌实业集团有限公司
110.33138291055499,19.977246307140916,海南中翰红日诚税务师事务所
110.06641318087135,19.94423530737459,海南中航特玻材料有限公司
110.3316837485426,20.06371840057209,海南中和(集团)有限公司
110.29826937399542,19.993561883834506,海南中和药业股份有限公司
0.0,0.0,海南中济医药科技有限公司
0.0,0.0,海南中嘉房地产开发有限公司
110.07030536549173,19.947592660943933,海南中坚电缆有限公司
110.32003329635951,20.072384714521416,海南中交高速公路投资建设有限公司
110.40696358772473,19.97324810361666,海南中鲁古建园林工程有限公司
110.32642941011815,20.026200336938935,海南中明智会计师事务所有限公司
110.35235092278664,20.051596938690015,海南中农航服科技有限公司
110.35730079242938,20.029976460113442,海南中旗网络科技有限公司
110.3562170606828,20.04351028179377,海南中胜融资租赁有限公司
110.11922946361683,19.94798935555003,海南中橡科技有限公司
110.30071097916608,20.02454349435254,海南中信达信息技术有限公司
110.34283097844099,19.99801052296361,海南中学
109.50951709342743,18.242120873002555,海南中学三亚学校
110.32145760399322,20.063114369231954,海南中元市政工程设计有限公司
108.67426788501663,18.923938748451228,海南中正水产科技有限公司
110.31208714772451,20.026518785246168,海南中执信会计师事务所(普通合伙)
110.3106968840913,20.031587561140217,海南中智信信息技术有限公司
109.55630327178794,19.52114403625035,海南众和建设项目管理有限公司
110.3195343256241,20.03537510293831,海南珠江工程监理有限公司
110.31209014150362,20.02651377553203,海南蛛王药业有限公司
110.32680475558976,19.984092671809886,海南主健细胞分子遗传医学检验中心有限公司
0.0,0.0,海南追梦科技有限公司
110.46420487147198,19.978436722486126,海南卓科制药有限公司
0.0,0.0,海南卓智自动化科技有限公司
110.34934047539906,20.020064692336604,海南紫天星科技有限公司
109.52649181640034,18.306113004691817,海南自贸区圣科豪斯木业有限公司
0.0,0.0,海南自贸区卓兰贝居网络科技有限公司
109.60909856310987,18.308906652405565,海南尊旅在线信息技术有限公司
108.64405784974664,19.065867716747437,海洋石油富岛有限公司
108.64405784974664,19.065867716747437,海油富岛(上海)化学有限公司华南分公司
110.30255681744775,20.013958532283223,航天建筑设计研究院有限公司海南勘察设计分公司
0.0,0.0,河南天泰建设工程有限公司海南分公司
110.3158526945713,20.069638383763078,恒大地产集团海南有限公司
108.82818430119478,18.486522958162965,华东师范大学第二附属中学乐东黄流中学
0.0,0.0,华联世纪工程咨询股份有限公司海口分公司
0.0,0.0,华能海南发电股份有限公司
108.66822979286734,19.10798358992212,华能海南发电股份有限公司东方电厂
0.0,0.0,华能海南发电股份有限公司海口电厂
109.20208141136764,19.82885578552144,华能洋浦热电有限公司
109.50875438839776,18.27554617041396,华侨城(海南)集团有限公司
109.85160690537495,19.03787690447833,华中师范大学琼中附属中学
125.35275805386148,41.260524239464964,桓仁满族自治县建筑安装有限责任有限公司海南分公司
108.79100407418737,18.503361928918768,黄流中学
109.47789572668424,18.292341789269113,慧人人力资源(海南)股份有限公司
0.0,0.0,火山有礼(海南)品牌运营有限公司
110.25897590670057,19.99744089898085,佳风工程设计有限公司
0.0,0.0,佳友通电子支付股份有限公司
110.28691856624577,19.99933213916208,嘉里大通物流有限公司海南分公司
110.4681176029961,19.36889944937537,健金隆(海南)农业开发有限公司
110.29831179638089,20.02262293981337,交通银行海口世贸支行
110.2568070258638,20.002179836392408,交通运输部南海航海保障中心海口通信中心
0.0,0.0,今日海南杂志社
110.34017844366689,20.02041685932633,今日人力资源开发(海南)有限公司
0.0,0.0,巨麦(海南)信息科技有限公司
110.2956604291869,19.9922540639736,康宁(海南)光通信有限公司
110.25193882478793,19.993574303656185,康芝药业股份有限公司
110.1156428673472,19.94877958134199,科力电子信息有限公司
110.93811834230917,19.6432843354086,蓝星(海南)航天化工有限公司
0.0,0.0,乐东黎母自酿酒业有限公司
109.16595160424376,18.752165995755743,乐东黎族自治县开发性金融合作办公室
109.57117921552833,18.286737865782936,乐东黎族自治县南繁管理局
109.83426609795917,19.03335394024973,乐东黎族自治县农业技术推广服务中心
109.1808185304213,18.759138629246188,乐东黎族自治县思源实验学校
108.8893065364558,18.477404236404094,乐东县冲坡中学
0.0,0.0,乐东县大学生村官创业示范基地
110.3346090098387,20.030606533950344,立信会计师事务所(特殊普通合伙)海南分所
0.0,0.0,辽宁省市政工程设计研究院有限责任公司海南分公司
109.69555709364423,19.94522787180982,临高第二思源实验学校
110.31061705459143,20.03160672413426,临高海丰养殖发展有限公司
109.54033259630167,19.9372564841908,临高县调楼镇
109.70314424097103,19.944870966536406,临高县澜江学校
109.69132064544202,19.909548708361218,临高县临高中学
0.0,0.0,陵水骏晟房地产开发有限公司
110.0565692890532,18.54797194300624,陵水康宁医院
110.03094393978853,18.503233176753316,陵水黎族自治县财政局
109.57117921552833,18.286737865782936,陵水黎族自治县南繁种业管理局
110.00611718780213,18.506936393660432,陵水黎族自治县人民医院
110.02620662253732,18.505859894369323,陵水黎族自治县中医院
110.02458008329154,18.50734847787358,陵水县陵水中学
109.51574989908205,18.232056341934634,龙元建设集团股份有限公司海南分公司
0.0,0.0,隆平生物技术(海南)有限公司
110.3383094698436,20.02035419895759,罗牛山股份有限公司
110.31163584617984,20.031882070308747,绿地集团海口置业有限公司
109.5763191586046,18.285578133271766,绿地集团三亚置业有限公司
110.38970594518655,18.85043616925859,漫游谷(海南)科技集团有限公司
110.31958343888667,19.992457391164095,南国都市报社
0.0,0.0,牛津(海南)区块链研究院有限公司
109.69960265575763,19.712375458086413,农垦加来高级中学
110.31307906384949,20.025198844277014,平安银行股份有限公司海口分行
110.31647613026848,20.034727366695453,锦环境工程(海南)有限公司
110.25501718076454,19.99874868325588,齐鲁制药(海南)有限公司
110.47238041437646,19.385776233081003,琼海市大路中学
110.46007025101878,19.237498659607247,琼海市第一小学
110.46667202485655,19.251281935356612,琼海市疾病预防控制中心
110.47357950934776,19.246574491769735,琼海市嘉积第二中学
110.47062983615804,19.23053401965169,琼海市嘉积镇卫生院
110.464480980828,19.24709976137059,琼海市嘉积中学
110.47043440996327,19.26892692634969,琼海市农产品质量安全检验检测站
110.46489656738704,19.255045576292584,琼海市农业技术推广服务中心
110.46436758116334,19.24968869259023,琼海市人民医院
110.47511014794742,19.252630361690496,琼海市实验小学
110.48137129562805,19.2595641104206,琼海市小学教研室
110.38747116885781,19.114503662549787,琼海市阳江镇中心卫生院
110.60715819181402,19.340945945439998,琼海市长坡镇农业服务中心
110.47096664967118,19.23117699503866,琼海市中医院
0.0,0.0,琼海亚莲莲雾种植户农民专业合作社
110.48022982158734,19.12860092095958,琼海忠锐农业开发有限公司
110.51247233470326,19.976564642412914,琼台师范学院
110.05926723649624,18.80362276133348,琼中和平镇飞水有机咖啡专业合作社
109.82543506837246,19.27251829295836,琼中佳佳绿橙专业合作社
109.72140563126638,19.250463477898705,琼中黎母山镇大边三扬信农机粽叶合作社
110.01912140422311,18.903479257767064,琼中黎族苗族自治县和平中心小学
109.83667111809126,19.047170460677897,琼中黎族苗族自治县实验小学
109.85276509991732,19.24148794864859,琼中黎族苗族自治县新进中心小学
109.83543746902933,19.239643867651694,琼中黎族苗族自治县新进中学
109.85140850491003,19.039206497833213,琼中女足管理中心
109.84484162972991,19.0449661716872,琼中县华中师范大学琼中附属中学思源实验学校
109.79143117339606,19.04185770859306,琼中县加钗农场
109.83321342188398,18.878678897525337,琼中县上安乡
109.66610273410274,18.425593103824937,琼中县什运乡统村委会番道村
109.68630186651018,19.041619205727176,琼中县新伟学校
109.98452166671619,19.05260241902513,琼中县营根镇崩坎村
110.11591434960589,19.886292965455887,琼中兴民养鸡专业合作社
110.25286881585595,20.005992375233802,三沙大海蓝生态农业科技有限公司
110.34017844366689,20.02041685932633,"三沙国海信通科技
发展有限公司"
110.32541457443523,19.989648932787976,三沙海兰信海洋信息科技有限公司
109.57410112311841,19.51068524659259,三沙市新闻中心
0.0,0.0,三沙市政策项目研究中心
109.5642917306508,19.529693640896138,三沙市综合执法支队
109.49218129938733,18.32851138271628,三亚槟榔河实业有限公司
109.50910122309595,18.257138913674453,三亚城市投资建设集团有限公司
0.0,0.0,三亚大权汽车租赁有限公司
109.5152177704181,18.268127450193763,三亚大兴春光投资有限公司
109.58725058033036,18.281266645937055,三亚帝海狮王文化产业发展有限公司
109.52454164446442,18.288921286313617,三亚方圆建设管理有限公司
109.49686155160606,18.24809918242749,三亚公共交通集团
109.49041196171049,18.26973223347291,三亚广播电视台
109.45918103007045,18.320325070634297,三亚哈尔滨医科大学鸿森医院
109.48624293891926,18.293756737027152,三亚航空旅游职业学院
110.33165220221962,20.03712848378098,三亚弘纳税务师事务所有限公司
109.51296335543732,18.228938208696988,三亚鸿洲卡纳游艇服务有限公司
109.64110088172555,18.23426465014203,三亚华宇旅业有限公司亚龙湾迎宾馆
109.52454665562763,18.28895831187401,三亚惠民人力资源开发服务有限公司
109.51067081222199,18.296627733335328,三亚技师学院
109.50796044806536,18.247343130766744,三亚建筑工程质量检测中心
109.1786338930087,18.363925815822082,三亚君福来实业有限公司
109.52600162074638,18.30515240526797,三亚君和物业服务有限公司
0.0,0.0,三亚蓝博麻双鸣文化艺术发展有限公司
109.54816421831836,18.338100164811262,三亚理工职业学院
109.5240248304181,18.299370281746608,三亚荔枝沟京功汽修厂
109.39055714751677,18.291654062601946,三亚南鹿实业股份有限公司
109.50191702575393,18.2719015957144,三亚日报社
109.52009489976645,18.35595554907185,三亚市半岭水库工程管理处
109.50313359979292,18.248739261130474,三亚市城市规划设计研究院有限公司
109.50312557717483,18.24873023395292,三亚市畜牧兽医局
0.0,0.0,三亚市聪明屋科技有限公司
109.49069595477472,18.265915787796192,三亚市第九小学
109.49902585843446,18.289797854232184,三亚市第一中学
109.50936683149183,18.23862518906825,三亚市动物疫病预防控制中心
109.51409894498158,18.77556777609544,三亚市房产信息中心
109.53165201946084,18.29491069492891,三亚市妇幼保健院
109.70785247548753,18.290167979274738,三亚市海棠区江林村委会
109.7021030342209,18.31662539238172,三亚市海棠区林旺中学
110.04470167026513,19.937558105511172,三亚市海棠区文化艺术产业协会
109.70766950364718,18.316429558115626,三亚市海棠湾开发建设有限公司
109.68688015516324,18.318668847373026,三亚市海棠湾水稻国家公园开发有限公司
0.0,0.0,三亚市海洋与渔业监测中心
109.51155712027835,18.278882499760055,三亚市河长制服务中心
109.52094368677717,18.301293493928714,三亚市吉阳区南新小学
109.53455972147727,18.232524508477738,三亚市教育研究培训院
109.50909965120802,18.247811654425472,三亚市芒果协会
109.46455121055507,18.310402696381377,三亚市妙联学校
109.49558077497124,18.292699419015793,三亚市南繁科学技术研究院
109.52372782710096,18.261201786734553,三亚市农业技术推广服务中心
0.0,0.0,三亚市热带作物技术推广服务中心
109.51163327822204,18.28007011734421,三亚市人力资源和社会保障局
109.5014745487847,18.25477139579004,三亚市人民医院
109.48374584461504,18.27325355236288,三亚市实验小学
0.0,0.0,三亚市水利水电建筑工程有限公司
109.49939868414053,18.252214265587074,三亚市水利水电勘测设计院
109.50749504919584,18.249021344298722,三亚市土地整理中心
110.36145452182633,20.0105674738459,三亚市现代农业检验检测预警防控中心
0.0,0.0,三亚市信息化基础设施投资建设发展有限公司
109.30504313436577,18.419367083167323,三亚市育才医院
109.51747642475522,18.25751623082084,三亚市中医院
109.50802162336134,18.24730429781941,三亚水文地质工程地质勘察院
109.52626186713807,18.249131364045375,三亚同禄园林有限公司
109.5257940735621,18.305593994799764,三亚新大兴园林生态有限公司
0.0,0.0,三亚鑫豪苑酒店管理有限公司
109.55522035239596,18.33639060222217,三亚学院
109.62472696225794,18.246388312485504,三亚亚龙湾开发股份有限公司
109.62911833298621,18.229273666118083,三亚盈湾酒店有限公司三亚喜来登度假酒店
109.15023703713615,18.33787444596781,三亚用友软件科技有限公司
0.0,0.0,三亚邮轮游艇研究院
109.5119565338054,18.294033644811307,三亚榆和医院
109.50052487762073,18.253381059504335,三亚泽亿堂大药房有限公司
109.31146502971767,18.31271250031135,三亚中科遥感研究所
109.68766113834491,18.308189215139727,三亚中瑞酒店管理职业学院
0.0,0.0,三亚中泰瑞会计师事务所(普通合伙)
109.48985328805531,18.271273078812236,三亚中心医院
108.795770002594,19.11985937412871,三月三广场黎锦纺染织绣技艺传承馆
110.33899773789229,20.0058679184432,厦门天和项目管理投资咨询有限公司海南分公司
110.31608326080782,20.029605862267335,上海浦东发展银行股份有限公司海口分行
110.3383810088809,20.04542585019938,尚南堂海南生态农业科技有限公司
0.0,0.0,深圳市华阳国际工程设计股份有限公司海南分公司
110.31442534095176,20.04039592419774,时云医疗科技(海南)有限公司
110.2606452153101,19.98794712988842,双鹤药业(海南)有限责任公司
109.50339921613522,18.27340154140553,太平置业(海南)有限公司
110.35717348113774,19.982964630669898,天道创服(海南)网络科技集团有限公司
110.3170518399195,20.03511660075045,天涯社区网络科技股份有限公司
110.3110731022803,20.03105742742588,添逸海南网络科技有限公司
110.083424778385,19.951056648748413,通威(海南)水产食品有限公司
0.0,0.0,屯昌丰原黑山羊农民专业合作社
0.0,0.0,屯昌绿品源农业发展有限公司
109.94421311181299,19.320236575136683,屯昌县南坤镇
110.0933671867202,19.348536682373968,屯昌县屯昌中学
110.1073499869135,19.374026311359767,屯昌县屯城镇竹头塘小学
110.07158311063402,19.181567392868235,屯昌县乌坡镇
110.16619210654169,19.285779328579572,屯昌县中建农场医院
110.33172785317734,18.921746980101112,万宁北大六角领山鸡养殖场
0.0,0.0,万宁东润合作社
110.36384767460214,18.796818753363407,万宁南山融创实业有限公司
110.38019700823268,18.791426370081584,万宁市第二中学
110.39740192535453,18.71648673664517,万宁市东奥镇
110.42424782293797,18.937641053990873,万宁市和乐镇琉川村农场
110.45315001047261,18.846101112274784,万宁市后安镇坡仔村委会
110.3917513408165,18.797834244990174,万宁市万城金龙木雕工艺
110.4222682276468,18.815899805773526,万宁市万宁中学
110.39562608315198,18.82564573247019,万宁市现代农业检验检测预警防控中心
110.38881210666507,18.799465087965896,万宁市兴水产养殖有限公司
110.51457757729924,18.98467419629526,万宁王智彪养殖场
110.25486983597173,18.783087763501566,万宁兴民东山养殖专业合作社
0.0,0.0,文昌龙泉文昌鸡实业有限公司
109.43522727721675,18.300880023851292,文昌南阳琼岛农资店
110.8394959837608,19.594666620591333,文昌市宝玉农民农机专业合作社
110.75039795450765,19.630749535031168,文昌市城市建设投资有限公司
110.84590750154243,19.6580368169669,文昌市东阁中心小学
109.50653919566098,18.273453916116974,文昌市环境监测站
110.74943989182682,19.584532209345145,文昌市教育局小学教研室
110.74943989182682,19.584532209345145,文昌市教育局中学教研室
110.75773506132253,19.63079889340869,文昌市旅游投资控股有限公司
108.65504748670314,19.10128970003802,文昌市农产品质量安全检验检测站
110.75488445755367,19.620802077845998,文昌市庆龄妇幼保健院
110.73834925518018,19.631065311109005,文昌市文城中心小学
110.75507252844254,19.59893517148849,文昌市文化馆
110.74957180790341,19.584696313163484,文昌市园林管理局
110.75586207456766,19.602506378136344,文昌中学
0.0,0.0,我的田(海南)农业信息科技有限公司
109.66726136028235,18.88917834302931,五指山锦家人织绣文化有限公司
109.70371570661278,18.899337715095612,五指山苗妹绣画艺术开发有限公司
109.51163953705787,18.850565791594082,五指山妙自然茶叶有限公司
109.58873948840493,18.74037052356171,五指山市南圣镇
109.51309482844282,18.782488526065045,五指山市通什镇
109.50535083430837,18.78418967335639,五指山市通什镇番茅福建村小组
109.51256653358203,18.77871619060129,五指山市通什镇市政府
109.71130273408734,19.953556260224936,西南大学临高实验中学
110.22661695529271,18.75713673389195,溪地阳光(海南)生物科技有限公司
109.06150276317895,19.26757283730101,先正达(中国)投资有限公司
110.10824473623053,19.955518562192164,欣龙控股(集团)股份有限公司
110.30877905071297,20.030257973888613,新华通讯社海南分社
110.33805874330167,20.025524947899793,兴业银行股份有限公司海口分行
110.314842029697,20.028780514868934,雅克设计有限公司
110.33480955672427,20.03084435764931,阳光财产保险股份有限公司海南省分公司
109.19034956738543,19.735125590366156,洋浦汇泰实业发展有限公司
109.21566925242756,19.753025003644186,洋浦经济开发区医院
109.20728638706912,19.786213901467235,洋浦控股酒店有限公司
109.23118084701764,19.769442431275113,洋浦实验小学
0.0,0.0,洋浦双隆安装检修有限公司
0.0,0.0,元合生物科技股份有限公司
110.33643760405998,20.057476376690655,招商蛇口海口发展有限公司
110.29851719135564,20.026618913823494,招商银行股份有限公司海口分行
0.0,0.0,知远(海南)物联网科技有限公司
109.5262843157454,18.305603295818308,智海王潮传播集团有限公司
0.0,0.0,中材地质工程勘查研究院有限公司海南分公司
110.25356098780608,19.9966724372111,中钞华森实业公司
109.15730705864148,18.328469499581637,中船重工海目测试技术(海南)有限公司
110.39727271396261,20.027487198225675,中电科海洋信息技术研究院有限公司
0.0,0.0,中都工程设计有限公司海南分公司
110.35096089320008,20.008206197763133,中共海南省委党校
0.0,0.0,中共海南省委统一战线工作部信息中心
0.0,0.0,中广核太阳能开发有限公司海南分公司
110.33760898670945,20.0203754984752,中规院(北京)规划设计公司海南公司
110.20005961294996,20.04489390898037,中国(海南)改革发展研究院
109.5113713705362,18.26227533567166,中国城市建设研究院有限公司海南分院
110.34870872037992,20.039545894247357,中国电建集团海南电力设计研究院有限公司
109.83435713076773,19.03638790200119,中国电信股份有限公司海南分公司
110.4976656686361,19.140628813806728,中国干细胞集团海南博鳌附属干细胞医院
110.33457767251964,20.03841106092147,中国工商银行股份有限公司海南省分行
110.31335252220903,20.024165476501096,中国光大银行海口分行
110.34862589700079,20.039344865645432,中国国电集团有限公司海南分公司
110.32080971573187,20.030970021586693,中国建设银行股份有限公司海南省分行
110.47215165657813,19.994229304208964,中国交通建设股份有限公司海南分公司
110.32610621236572,20.063167536598993,中国进出口银行海南省分行
110.66943466276761,19.3734299482358,中国科学院空天信息研究院海南研究院
109.47575270183796,18.211567496694784,中国科学院深海科学与工程研究所
110.00190252466274,19.761690748329322,中国民生银行股份有限公司海口分行
110.34618392292123,20.037996872959827,中国南方电网有限责任公司超高压输电公司广州局海口分局
109.4021892121885,18.309511035741703,中国南方航空股份有限公司海南分公司
110.40362984600145,20.060585367344764,中国南海研究院
110.3228066553464,19.98475685565941,中国热带农业科学院
110.32293940024243,19.983958940476665,中国热带农业科学院分析测试中心
110.32493987531096,19.98502100030487,中国热带农业科学院海口实验站
110.3228066553464,19.98475685565941,中国热带农业科学院后勤服务中心
109.49204437483058,19.50980029889509,中国热带农业科学院环境与植物保护研究所
110.32342231081641,19.984168191636346,中国热带农业科学院科技信息研究所
110.3228066553464,19.98475685565941,中国热带农业科学院南亚热带作物研究所
110.3228066553464,19.98475685565941,中国热带农业科学院农产品加工研究所
110.3236437453889,19.98553390123562,中国热带农业科学院热带生物技术研究所
110.32364476157072,19.985177603805898,中国热带农业科学院热带作物品种资源研究所
110.77472800664727,19.55509693374201,中国热带农业科学院试验场
110.19423483433002,18.7346093048454,中国热带农业科学院香料饮料研究所
110.3229254586299,19.983432530614927,中国热带农业科学院橡胶研究所
110.78734801943578,19.55357975190678,中国热带农业科学院椰子研究所
110.31868554804811,20.028856312297705,中国人民财产保险股份有限公司海南省分公司
110.32231013296862,20.016239936253662,中国人民解放军海南省军区幼儿园
110.30990660657027,20.031041561767353,中国人民银行海口中心支行
109.2072124120818,19.763795504657676,中国石化海南炼油化工有限公司
110.26109901816578,20.024372110474253,中国石化销售有限公司海南石油分公司
109.97051514923021,18.420800909826863,中国水产科学研究院南海水产研究所
110.33972725201441,20.00426826741072,中国烟草总公司海南省公司
110.24820388854558,19.995324387392138,中国医学科学院药用植物研究所海南分所
110.44185119496274,19.260310179323,中国移动通信集团海南有限公司
110.33571348354708,20.03258812440725,中国银行海南省分行
110.00372004132203,19.736628649250747,中国邮政储蓄银行股份有限公司海南省分行
110.26883636123853,19.99791859172758,中国邮政集团公司海南省分公司
110.29402487098974,20.023498605484495,中国有色金属长沙勘察设计研究院有限公司海南分公司
109.05016083854949,19.257024772929512,中国有线电视网络有限公司海南分公司
109.47244658908062,18.30348590471673,中国种子集团有限公司三亚分公司
109.22129900182193,19.695026179788957,中海石油管道输气有限公司
110.30352270290471,20.036257347823913,中海石油海南天然气有限公司
108.63697692999325,19.065054140998196,中海石油化学股份有限公司
108.63486005028707,19.06124553088365,中海石油建滔化工有限公司
108.63443545340009,19.069751695612982,中海油东方石化有限责任公司
109.51026364449666,18.254023244703006,中交海洋投资控股有限公司
110.26365426936867,20.01829947008472,中南城建第一工程局有限公司
110.3236437453889,19.98553390123562,中热带农业科学院热带生物技术研究所
109.16359056448667,19.786889393761253,中石化(香港)海南石油有限公司
110.22278125611501,20.042186670772224,中石油海南销售有限公司
110.45356185954321,19.24372545177471,中石油昆仑燃气有限公司海南分公司
110.35234073778115,20.055508185714707,中水电(海南)投资发展有限公司
110.41479745434141,19.983163947189677,中水珠江规划勘测设计有限公司海南分公司
0.0,0.0,中铁第四勘察设计院集团有限公司海南分公司
110.03892017627372,18.45566453291648,中铁建海南投资有限公司
110.3999769623103,20.066384478113818,中铁十二局集团海南分公司
110.11930645305453,19.949767899163056,中信国安(海南)体育文化发展有限公司
110.31569496574619,20.032488985144756,中信银行股份有限公司海口分行
110.31223882619898,20.026385392882506,中兴财光华会计师事务所(特殊普通合伙)海南分所
108.66474210782464,19.126517803359036,中央储备粮海口直属库有限公司
110.01487454430597,18.482389608893406,中央民族大学附属中学海南陵水分校
110.0613954558031,19.977708620314417,中油海垦(海南)能源有限公司
110.31154605503835,20.031591996083677,中元国际(海南)工程设计研究院有限公司三亚分公司
110.58044994688986,19.15976903115332,中远海运博鳌有限公司
110.31734281823553,20.023120100601336,卓越置业集团(海南)有限公司
